City Name,Country,Latitude,Longitude,Max Temperature (*F),Humidity (%),Cloudiness (%),Wind Speed (MPH),Datetime
Longyearbyen,SJ,78.2186,15.6401,14.0,79,75,12.66,2021-02-10 10:59:07
Husavik,IS,66.0449,-17.3389,23.0,93,90,3.44,2021-02-10 10:59:07
Jamestown,US,42.097,-79.2353,15.01,92,90,5.75,2021-02-10 10:54:14
Coari,BR,-4.085,-63.1414,72.95,97,95,2.42,2021-02-10 10:59:07
Florø,NO,61.5996,5.0328,28.4,64,20,1.14,2021-02-10 10:59:08
Punta Arenas,CL,-53.15,-70.9167,53.6,82,75,4.61,2021-02-10 10:59:08
Osa,RU,57.2829,55.4567,-3.84,86,80,1.66,2021-02-10 10:59:08
Ushuaia,AR,-54.8,-68.3,59.0,77,0,6.91,2021-02-10 10:54:40
Dingle,PH,10.9995,122.6711,77.45,87,71,1.88,2021-02-10 10:59:08
Busselton,AU,-33.65,115.3333,63.0,77,17,1.99,2021-02-10 10:59:08
Beringovskiy,RU,63.05,179.3167,-15.56,88,10,11.23,2021-02-10 10:59:08
San Patricio,US,28.017,-97.5169,69.01,100,90,4.61,2021-02-10 10:59:08
Bariloche,AR,-41.1456,-71.3082,64.99,71,0,5.75,2021-02-10 10:59:08
Manokwari,ID,-0.8667,134.0833,79.7,85,100,12.24,2021-02-10 10:59:08
Poum,NC,-20.2333,164.0167,78.64,77,0,15.5,2021-02-10 10:59:09
Saint Paul Harbor,US,57.79,-152.4072,37.4,70,90,14.97,2021-02-10 10:56:11
Puerto Ayora,EC,-0.7393,-90.3518,75.99,94,38,1.01,2021-02-10 10:59:09
Rikitea,PF,-23.1203,-134.9692,78.67,72,35,8.19,2021-02-10 10:59:09
Thompson,CA,55.7435,-97.8558,-38.2,67,1,8.05,2021-02-10 10:59:09
Ponta do Sol,PT,32.6667,-17.1,63.0,68,93,1.99,2021-02-10 10:59:09
Vaini,TO,-21.2,-175.2,78.8,94,75,11.5,2021-02-10 10:59:09
Lukulu,ZM,-14.3707,23.242,78.69,76,61,6.29,2021-02-10 10:59:09
Hobart,AU,-42.8794,147.3294,57.99,67,0,9.22,2021-02-10 10:58:34
Albany,US,42.6001,-73.9662,16.0,92,40,8.05,2021-02-10 10:59:10
Mataura,NZ,-46.1927,168.8643,54.91,65,100,12.39,2021-02-10 10:59:10
Healdsburg,US,38.6105,-122.8692,44.01,81,17,2.39,2021-02-10 10:56:56
Finnsnes,NO,69.2296,17.9811,14.0,92,75,2.3,2021-02-10 10:59:10
Yellowknife,CA,62.456,-114.3525,-11.0,77,90,14.97,2021-02-10 10:56:02
Saint-Philippe,RE,-21.3585,55.7679,87.8,62,0,19.57,2021-02-10 10:59:10
Panzhihua,CN,26.5851,101.7128,60.3,47,38,2.15,2021-02-10 10:59:10
Tiksi,RU,71.6872,128.8694,-11.88,86,89,4.41,2021-02-10 10:59:10
Hasaki,JP,35.7333,140.8333,41.0,75,75,2.3,2021-02-10 10:59:10
Maragogi,BR,-9.0122,-35.2225,81.57,72,69,1.43,2021-02-10 10:59:11
Xining,CN,36.6167,101.7667,38.84,54,100,1.52,2021-02-10 10:59:11
Bredasdorp,ZA,-34.5322,20.0403,78.8,50,8,11.5,2021-02-10 10:59:11
Verrettes,HT,19.05,-72.4667,69.8,83,18,5.75,2021-02-10 10:59:11
Dikson,RU,73.5069,80.5464,-21.21,89,100,10.36,2021-02-10 10:59:11
Zhigansk,RU,66.7697,123.3711,-20.74,84,0,6.11,2021-02-10 10:56:01
Havøysund,NO,70.9963,24.6622,24.8,80,75,16.11,2021-02-10 10:59:11
Kavieng,PG,-2.5744,150.7967,83.34,73,100,7.02,2021-02-10 10:59:11
Araguaçu,BR,-12.9306,-49.8264,73.76,92,78,2.84,2021-02-10 10:59:11
Lenoir City,US,35.7973,-84.256,44.01,93,90,1.01,2021-02-10 10:59:12
Dunedin,NZ,-45.8742,170.5036,57.99,61,85,1.99,2021-02-10 10:59:12
Nome,US,64.5011,-165.4064,-7.6,45,1,12.66,2021-02-10 10:59:12
Hualmay,PE,-11.0964,-77.6139,70.05,78,97,1.81,2021-02-10 10:59:12
Lorengau,PG,-2.0226,147.2712,79.65,81,100,6.2,2021-02-10 10:59:12
Letlhakane,BW,-21.4167,25.5833,82.35,39,100,13.42,2021-02-10 10:59:12
Saskylakh,RU,71.9167,114.0833,-21.41,82,0,12.8,2021-02-10 10:59:12
Bengkulu,ID,-3.8004,102.2655,75.36,90,100,3.38,2021-02-10 10:59:12
Kieta,PG,-6.2167,155.6333,80.92,79,100,5.84,2021-02-10 10:59:13
Tuatapere,NZ,-46.1333,167.6833,51.64,90,100,13.22,2021-02-10 10:59:13
Egvekinot,RU,66.3167,-179.1667,-21.12,77,0,12.66,2021-02-10 10:59:13
Izumo,JP,35.3667,132.7667,48.2,61,75,13.8,2021-02-10 10:59:13
Mahébourg,MU,-20.4081,57.7,86.0,66,40,10.36,2021-02-10 10:59:13
Los Llanos de Aridane,ES,28.6585,-17.9182,69.8,68,40,4.61,2021-02-10 10:59:13
Codrington,AU,-38.2667,141.9667,62.64,75,0,7.63,2021-02-10 10:59:13
Dalby,AU,-27.1833,151.2667,73.4,53,0,17.27,2021-02-10 10:59:14
East London,ZA,-33.0153,27.9116,82.4,74,40,9.22,2021-02-10 10:59:14
Zhangye,CN,38.9342,100.4517,41.61,54,100,5.1,2021-02-10 10:59:14
Torbay,CA,47.6666,-52.7314,26.01,93,75,31.07,2021-02-10 10:59:14
Daru,PG,-9.0763,143.2092,80.62,85,92,3.51,2021-02-10 10:59:14
Ossora,RU,59.2353,163.0719,26.73,98,100,21.54,2021-02-10 10:59:14
Erzin,TR,36.9559,36.2,66.99,68,11,6.17,2021-02-10 10:59:14
Avarua,CK,-21.2078,-159.775,77.0,94,100,1.14,2021-02-10 10:59:14
Kruisfontein,ZA,-34.0033,24.7314,84.0,60,0,11.01,2021-02-10 10:59:14
Hermanus,ZA,-34.4187,19.2345,87.01,52,1,5.99,2021-02-10 10:59:14
Arlit,NE,18.7369,7.3853,88.45,10,0,5.12,2021-02-10 10:59:15
Kutum,SD,14.2,24.6667,77.77,17,0,10.54,2021-02-10 10:59:15
Samdari,IN,25.8167,72.5833,87.73,12,35,3.87,2021-02-10 10:59:15
Las Palmas,ES,28.4204,-14.0131,66.2,82,40,4.61,2021-02-10 10:59:15
Sisimiut,GL,66.9395,-53.6735,15.64,81,0,4.72,2021-02-10 10:59:15
Omboué,GA,-1.5746,9.2618,84.81,75,99,3.29,2021-02-10 10:59:15
Jinchang,CN,38.4953,102.1739,40.26,58,100,3.71,2021-02-10 10:59:15
Cayenne,GF,4.9333,-52.3333,77.0,78,90,9.22,2021-02-10 10:59:15
Angoche,MZ,-16.2325,39.9086,88.23,63,70,6.78,2021-02-10 10:59:16
Nikolskoye,RU,59.7035,30.7861,12.0,85,40,2.24,2021-02-10 10:59:16
Port Alfred,ZA,-33.5906,26.891,80.01,81,60,1.99,2021-02-10 10:59:16
Lundazi,ZM,-12.2929,33.1782,75.33,82,82,7.14,2021-02-10 10:59:16
Felanitx,ES,39.4696,3.1483,61.0,59,20,32.21,2021-02-10 10:59:16
Sicamous,CA,50.8331,-118.9856,10.4,72,100,4.61,2021-02-10 10:59:16
Constitución,CL,-35.3333,-72.4167,61.3,83,0,2.77,2021-02-10 10:59:16
Kalianget,ID,-7.05,113.9333,80.02,84,98,9.06,2021-02-10 10:59:16
San Jose,US,37.3394,-121.895,46.99,93,20,2.84,2021-02-10 10:55:09
Poção de Pedras,BR,-4.6667,-44.85,76.57,86,62,2.24,2021-02-10 10:59:17
Vung Tau,VN,10.346,107.0843,76.89,83,9,15.14,2021-02-10 10:59:17
Butaritari,KI,3.0707,172.7902,81.75,79,80,18.16,2021-02-10 10:59:17
Arrifes,PT,37.7667,-25.7,61.0,88,20,16.11,2021-02-10 10:59:17
Coahuayana Viejo,MX,18.7333,-103.6833,63.99,85,1,3.49,2021-02-10 10:59:17
Farias Brito,BR,-6.9306,-39.5656,75.2,88,75,3.29,2021-02-10 10:59:17
Dudinka,RU,69.4058,86.1778,-14.04,90,76,3.76,2021-02-10 10:59:17
Sechura,PE,-5.5569,-80.8222,73.99,77,73,5.39,2021-02-10 10:59:17
Cidreira,BR,-30.1811,-50.2056,75.18,79,36,11.81,2021-02-10 10:59:17
St. George's,GD,12.0564,-61.7485,78.8,78,75,11.5,2021-02-10 10:59:17
Tuktoyaktuk,CA,69.4541,-133.0374,-31.02,82,3,8.39,2021-02-10 10:59:18
Bluff,NZ,-46.6,168.3333,53.85,90,100,33.71,2021-02-10 10:59:18
Laguna,US,38.421,-121.4238,50.0,87,1,3.44,2021-02-10 10:59:18
Ancud,CL,-41.8697,-73.8203,57.99,82,14,3.58,2021-02-10 10:59:18
Prince Rupert,CA,54.3161,-130.3201,17.6,52,1,5.75,2021-02-10 10:59:18
Qaanaaq,GL,77.484,-69.3632,7.59,68,0,12.06,2021-02-10 10:59:18
Longuenesse,FR,50.734,2.2352,30.99,81,1,5.01,2021-02-10 10:59:18
New Norfolk,AU,-42.7826,147.0587,57.99,67,0,9.22,2021-02-10 10:59:18
Rāpar,IN,23.5667,70.6333,82.76,17,75,7.83,2021-02-10 10:59:18
Porto-Novo,BJ,6.4965,2.6036,87.8,74,40,9.22,2021-02-10 10:59:18
Pevek,RU,69.7008,170.3133,-10.23,73,0,1.32,2021-02-10 10:59:19
Ugoofaaru,MV,5.6667,73.0,82.13,69,45,10.45,2021-02-10 10:59:19
Barrow,US,71.2906,-156.7887,-14.8,70,90,21.85,2021-02-10 10:59:19
Forsytheganj,BY,52.6333,29.7333,15.12,96,99,8.59,2021-02-10 10:59:19
Havre-St-Pierre,CA,50.2334,-63.5986,-0.4,60,1,13.8,2021-02-10 10:59:19
Port Lincoln,AU,-34.7333,135.8667,75.07,46,8,7.29,2021-02-10 10:59:19
Marzuq,YE,14.4,46.4667,74.44,24,12,11.95,2021-02-10 10:59:19
Sinazongwe,ZM,-17.2614,27.4618,74.77,77,100,5.5,2021-02-10 10:59:19
Saint-Pierre,RE,-21.3393,55.4781,87.8,62,0,19.57,2021-02-10 10:59:19
Chokurdakh,RU,70.6333,147.9167,-9.31,88,99,3.78,2021-02-10 10:59:20
Esperance,AU,-33.8667,121.9,66.2,52,33,20.71,2021-02-10 10:59:20
Lagoa,PT,39.05,-27.9833,59.25,75,77,30.04,2021-02-10 10:59:20
Hobyo,SO,5.3505,48.5268,81.93,64,21,22.77,2021-02-10 10:59:20
Nhulunbuy,AU,-12.2333,136.7667,82.4,89,40,6.91,2021-02-10 10:55:17
Fairbanks,US,64.8378,-147.7164,-17.0,69,90,3.44,2021-02-10 10:58:11
Ust'-Barguzin,RU,53.45,108.9833,18.59,95,100,2.82,2021-02-10 10:59:20
Saint-Augustin,CA,51.226,-58.6502,10.29,95,100,8.79,2021-02-10 10:59:20
Tura,IN,25.5198,90.2201,72.72,34,7,3.89,2021-02-10 10:59:21
Zalesovo,RU,53.9939,84.7431,-2.76,89,100,12.59,2021-02-10 10:59:21
Baykit,RU,61.67,96.37,-6.81,86,100,4.88,2021-02-10 10:59:21
Faanui,PF,-16.4833,-151.75,81.39,73,0,12.44,2021-02-10 10:59:21
Lucea,JM,18.451,-78.1736,75.2,83,20,5.75,2021-02-10 10:59:21
Yangi Marg`ilon,UZ,40.4272,71.7189,53.6,58,100,2.3,2021-02-10 10:59:21
Sanmenxia,CN,34.7747,111.1814,55.81,37,0,12.21,2021-02-10 10:59:21
Uppsala County,SE,60.0,17.75,17.01,92,90,2.3,2021-02-10 10:59:21
Atuona,PF,-9.8,-139.0333,78.58,77,48,17.58,2021-02-10 10:59:21
Moba,CN,33.2288,105.0179,44.19,64,86,6.8,2021-02-10 10:59:21
Arraial do Cabo,BR,-22.9661,-42.0278,71.6,94,40,1.14,2021-02-10 10:59:22
Zlobin,HR,45.2924,14.6541,55.99,82,75,12.66,2021-02-10 10:59:22
Lakes Entrance,AU,-37.8811,147.981,63.0,81,1,1.99,2021-02-10 10:59:22
Honiara,SB,-9.4333,159.95,79.14,82,80,4.9,2021-02-10 10:55:06
Zambezi,ZM,-13.5432,23.1047,79.0,75,55,7.47,2021-02-10 10:59:22
Makakilo City,US,21.3469,-158.0858,69.8,63,1,4.61,2021-02-10 10:59:22
Riyadh,SA,24.6877,46.7219,71.6,20,0,9.22,2021-02-10 10:55:56
Fort Walton Beach,US,30.4058,-86.6188,61.0,100,90,6.71,2021-02-10 10:59:22
Dandong,CN,40.1292,124.3947,32.77,89,0,2.35,2021-02-10 10:59:22
Zheleznodorozhnyy,RU,55.7503,38.0042,12.0,67,75,4.47,2021-02-10 10:55:12
Kibala,TD,9.1104,18.3463,93.2,9,0,13.8,2021-02-10 10:59:23
Nagornskiy,RU,58.7731,57.5451,-13.0,75,100,3.09,2021-02-10 10:59:23
Young,UY,-32.6833,-57.6333,69.01,88,50,1.99,2021-02-10 10:59:23
Nyurba,RU,63.2842,118.3319,-5.53,90,100,7.11,2021-02-10 10:59:23
Carupano,VE,10.6678,-63.2585,70.88,82,81,4.25,2021-02-10 10:59:23
Kamenka,RU,51.3223,42.7678,19.99,89,100,4.21,2021-02-10 10:59:23
Warrnambool,AU,-38.3833,142.4833,66.99,72,0,8.32,2021-02-10 10:59:23
‘Ewa Beach,US,21.3156,-158.0072,69.8,63,1,4.61,2021-02-10 10:59:23
Cape Town,ZA,-33.9258,18.4232,81.0,64,0,25.32,2021-02-10 10:54:53
Kasongo-Lunda,CD,-6.4667,16.8167,84.74,64,100,2.1,2021-02-10 10:59:23
Itarema,BR,-2.9248,-39.9167,80.56,81,90,10.96,2021-02-10 10:59:24
Biak,ID,-0.9131,122.8766,79.43,82,66,2.93,2021-02-10 10:59:24
Lumphat,KH,13.4878,106.9816,84.15,43,27,5.03,2021-02-10 10:59:24
Lebu,CL,-37.6167,-73.65,59.41,86,0,1.61,2021-02-10 10:59:24
Eydhafushi,MV,5.1033,73.0708,81.7,70,41,11.88,2021-02-10 10:59:24
Paita,PE,-5.0892,-81.1144,73.18,81,63,5.59,2021-02-10 10:59:24
Harper,LR,4.375,-7.7169,82.71,80,100,6.26,2021-02-10 10:59:24
Creemore,CA,44.327,-80.1075,17.6,73,93,4.61,2021-02-10 10:59:24
Port Elizabeth,ZA,-33.918,25.5701,82.4,54,0,6.91,2021-02-10 10:59:24
Batemans Bay,AU,-35.7167,150.1833,64.99,80,99,1.01,2021-02-10 10:59:24
Makkah al Mukarramah,SA,21.4267,39.8261,87.49,24,0,8.3,2021-02-10 10:59:25
Coquimbo,CL,-29.9533,-71.3436,60.8,88,90,2.3,2021-02-10 10:54:30
São Miguel do Iguaçu,BR,-25.3481,-54.2378,64.4,100,75,1.14,2021-02-10 10:57:36
Dauriya,RU,49.9333,116.8667,12.24,94,97,5.03,2021-02-10 10:59:25
Puerto Madero,MX,14.7208,-92.4215,74.68,80,21,5.75,2021-02-10 10:59:25
Ft. Pierce,US,27.4467,-80.3256,70.0,94,90,3.44,2021-02-10 10:59:25
Sola,VU,-13.8833,167.55,82.71,78,95,15.46,2021-02-10 10:59:25
Katherine,AU,-14.4667,132.2667,86.0,70,20,4.07,2021-02-10 10:59:25
Mīrābād,AF,30.4362,61.8383,77.27,17,0,5.99,2021-02-10 10:59:25
Saint George,US,37.1041,-113.5841,48.99,43,40,1.86,2021-02-10 10:59:26
Mocuba,MZ,-16.8392,36.9856,88.05,66,79,6.89,2021-02-10 10:59:26
Dhārchula,IN,29.85,80.5333,68.45,24,20,7.49,2021-02-10 10:59:26
Khovd,MN,48.0056,91.6419,21.49,55,0,10.16,2021-02-10 10:59:26
Nichinan,JP,31.6,131.3667,55.4,33,75,12.66,2021-02-10 10:59:26
Lloydminster,CA,53.2835,-110.0016,-20.2,69,90,13.8,2021-02-10 10:59:26
Skjervøy,NO,70.0311,20.9714,26.6,74,75,13.8,2021-02-10 10:59:26
Paamiut,GL,61.994,-49.6678,23.85,82,94,10.33,2021-02-10 10:59:26
Barentu,ER,15.1139,37.5928,89.76,16,27,2.06,2021-02-10 10:59:26
Asău,RO,46.4333,26.4,55.0,40,76,10.76,2021-02-10 10:59:26
Huacho,PE,-11.1067,-77.605,70.14,77,97,1.81,2021-02-10 10:59:27
Mar del Plata,AR,-38.0023,-57.5575,66.99,77,40,13.8,2021-02-10 10:58:36
Pisco,PE,-13.7,-76.2167,69.8,88,0,8.05,2021-02-10 10:59:27
Hilo,US,19.7297,-155.09,73.4,49,90,14.97,2021-02-10 10:59:27
Marsá Maţrūḩ,EG,31.3525,27.2453,73.4,21,0,4.61,2021-02-10 10:59:27
Hong Kong,HK,22.2855,114.1577,63.0,88,100,3.0,2021-02-10 10:55:52
Sirte,LY,31.2089,16.5887,72.81,25,0,7.74,2021-02-10 10:55:07
Dukat,RU,62.55,155.55,5.05,93,98,4.36,2021-02-10 10:59:28
Kuybyshevo,RU,47.8123,38.9073,36.18,94,100,8.77,2021-02-10 10:59:28
Manzhouli,CN,49.6,117.4333,11.57,94,100,3.33,2021-02-10 10:59:28
Mandalī,IQ,33.7499,45.5541,74.82,23,100,9.28,2021-02-10 10:59:28
Vaitape,PF,-16.5167,-151.75,81.43,72,0,12.06,2021-02-10 10:59:29
Boa Vista,BR,2.8197,-60.6733,73.4,78,40,10.36,2021-02-10 10:59:29
Amlapura,ID,-8.45,115.6167,82.4,78,40,8.05,2021-02-10 10:59:29
Vysokaya Gora,RU,55.9128,49.3017,6.8,78,75,6.71,2021-02-10 10:59:29
Yeppoon,AU,-23.1333,150.7333,77.0,69,40,4.61,2021-02-10 10:59:29
Zilair,RU,52.2332,57.4392,6.17,94,100,8.48,2021-02-10 10:59:29
Nuuk,GL,64.1835,-51.7216,24.8,86,75,4.61,2021-02-10 10:59:29
Ponnampet,IN,12.15,75.9333,86.05,14,13,3.33,2021-02-10 10:59:30
Ostrovnoy,RU,68.0531,39.5131,7.02,93,91,16.71,2021-02-10 10:59:30
Necochea,AR,-38.5473,-58.7368,59.0,97,19,1.01,2021-02-10 10:59:30
São Filipe,CV,14.8961,-24.4956,71.71,69,39,5.17,2021-02-10 10:59:30
Castelnau-le-Lez,FR,43.6333,3.9,53.6,62,0,12.66,2021-02-10 10:59:30
Bukachacha,RU,52.9833,116.9167,7.99,94,96,1.3,2021-02-10 10:59:30
Khandyga,RU,62.6667,135.6,-11.56,88,93,2.8,2021-02-10 10:59:30
Kaoma,ZM,-14.7833,24.8,71.13,90,100,6.6,2021-02-10 10:59:30
Doha,QA,25.2867,51.5333,84.0,47,0,8.05,2021-02-10 10:59:30
Souillac,MU,-20.5167,57.5167,86.0,66,40,10.36,2021-02-10 10:59:30
Kloulklubed,PW,7.0419,134.2556,80.6,83,90,9.22,2021-02-10 10:59:31
Norrtälje,SE,59.758,18.705,28.99,85,0,6.91,2021-02-10 10:59:31
Gizo Government Station,SB,-8.103,156.8419,83.52,73,100,4.99,2021-02-10 10:59:31
Wellington,NZ,-41.2866,174.7756,60.8,77,99,17.27,2021-02-10 10:57:21
Kavaratti,IN,10.5669,72.642,82.42,59,48,5.75,2021-02-10 10:59:31
Cabo San Lucas,MX,22.8909,-109.9124,61.0,63,1,1.99,2021-02-10 10:59:31
Warri,NG,5.5167,5.75,92.8,52,25,4.38,2021-02-10 10:59:31
Mayo,US,38.8876,-76.5119,34.0,86,1,9.82,2021-02-10 10:59:31
Camacupa,AO,-12.0167,17.4833,81.66,61,89,0.51,2021-02-10 10:58:25
Denpasar,ID,-8.65,115.2167,82.4,78,40,8.05,2021-02-10 10:59:31
Afuá,BR,-0.1567,-50.3867,76.39,92,100,4.68,2021-02-10 10:59:31
Ulladulla,AU,-35.35,150.4667,66.2,72,75,4.61,2021-02-10 10:59:32
São João da Barra,BR,-21.6403,-41.0511,71.6,94,0,9.22,2021-02-10 10:58:01
Praia da Vitória,PT,38.7333,-27.0667,60.8,77,20,15.97,2021-02-10 10:59:32
Roald,NO,62.5833,6.1333,28.4,69,20,11.5,2021-02-10 10:59:32
Port Blair,IN,11.6667,92.75,79.95,55,4,10.29,2021-02-10 10:59:32
Rawson,AR,-43.3002,-65.1023,69.15,53,0,28.16,2021-02-10 10:59:32
Pacific Grove,US,36.6177,-121.9166,52.0,87,90,4.61,2021-02-10 10:58:05
Macon,US,39.8667,-88.9668,12.2,73,90,11.5,2021-02-10 10:59:32
Kemin,KG,42.7846,75.6892,37.18,84,100,2.68,2021-02-10 10:59:32
Sasina,BA,44.7987,16.739,48.2,93,75,3.44,2021-02-10 10:59:33
Okakarara,NA,-20.5833,17.4333,73.09,70,100,9.04,2021-02-10 10:59:33
Aquiraz,BR,-3.9014,-38.3911,82.4,78,75,13.8,2021-02-10 10:56:59
Banda Aceh,ID,5.5577,95.3222,81.81,79,96,8.75,2021-02-10 10:59:33
Yabrūd,SY,33.9674,36.6574,73.4,25,0,11.5,2021-02-10 10:59:33
Bambous Virieux,MU,-20.3428,57.7575,86.0,66,40,10.36,2021-02-10 10:59:33
Saint-André-Avellin,CA,45.7168,-75.066,5.0,85,52,1.14,2021-02-10 10:59:33
Maniitsoq,GL,65.4167,-52.9,19.87,88,5,5.39,2021-02-10 10:59:33
Dolzhanskaya,RU,46.6311,37.8039,40.03,90,100,8.68,2021-02-10 10:59:33
Susanville,US,40.4163,-120.653,42.8,75,90,5.75,2021-02-10 10:59:33
Fort Nelson,CA,58.8053,-122.7002,-11.2,70,90,10.36,2021-02-10 10:59:33
Ende,ID,-8.8432,121.6623,80.44,78,99,1.63,2021-02-10 10:59:34
Pampa,US,35.5362,-100.9599,17.6,86,90,8.05,2021-02-10 10:58:15
Burnie,AU,-41.0667,145.9167,56.66,78,0,7.9,2021-02-10 10:59:34
Burē,ET,10.7,37.0667,79.86,17,58,8.01,2021-02-10 10:59:34
Vinh,VN,18.6667,105.6667,64.83,81,34,5.17,2021-02-10 10:59:34
Igrim,RU,63.1906,64.4162,-17.79,87,0,3.96,2021-02-10 10:59:34
Caibarién,CU,22.5206,-79.4669,69.8,94,20,5.75,2021-02-10 10:59:34
Harsīn,IR,34.2721,47.5861,57.2,33,75,3.96,2021-02-10 10:59:34
Ginda,IN,30.6945,78.4932,59.79,33,40,3.15,2021-02-10 10:59:34
Atar,MR,20.5169,-13.0499,80.15,14,50,15.9,2021-02-10 10:59:35
Stromness,GB,58.965,-3.296,30.2,64,20,1.14,2021-02-10 10:59:35
Port-Gentil,GA,-0.7193,8.7815,82.53,77,100,2.93,2021-02-10 10:59:35
Oranjemund,NA,-28.55,16.4333,71.19,67,2,12.17,2021-02-10 10:59:35
Machiques,VE,10.0644,-72.545,73.72,68,72,3.85,2021-02-10 10:59:35
Anadyr,RU,64.75,177.4833,3.2,55,0,6.71,2021-02-10 10:59:35
Ribeira Grande,PT,38.5167,-28.7,55.4,94,75,33.38,2021-02-10 10:59:35
Tabou,CI,4.423,-7.3528,82.71,80,93,4.68,2021-02-10 10:59:35
Muros,ES,42.7762,-9.0603,48.99,96,69,7.2,2021-02-10 10:59:35
Hofn,IS,64.2539,-15.2082,33.78,89,85,4.07,2021-02-10 10:59:35
Berlevåg,NO,70.8578,29.0864,23.0,68,75,18.41,2021-02-10 10:59:36
Tasiilaq,GL,65.6145,-37.6368,8.6,66,20,4.38,2021-02-10 10:59:36
Belaya Gora,RU,68.5333,146.4167,-19.43,88,19,1.88,2021-02-10 10:59:36
Kapoeta,SS,4.7717,33.5903,100.49,18,89,14.09,2021-02-10 10:59:36
Hohhot,CN,40.8106,111.6522,42.8,19,0,4.47,2021-02-10 10:59:36
Kozhevnikovo,RU,56.2589,83.9714,-2.99,72,100,4.0,2021-02-10 10:59:36
Cherskiy,RU,68.75,161.3,-7.74,85,0,1.99,2021-02-10 10:59:36
Kapaa,US,22.0752,-159.319,66.2,63,90,9.22,2021-02-10 10:59:36
Kiryat Gat,IL,31.61,34.7642,75.0,41,9,1.99,2021-02-10 10:59:36
Hukuntsi,BW,-24.0,21.75,85.57,34,47,16.55,2021-02-10 10:59:36
Norman Wells,CA,65.282,-126.8329,-40.0,67,20,0.98,2021-02-10 10:59:37
Kalangala,UG,-0.3089,32.225,77.0,78,20,13.8,2021-02-10 10:59:37
Opuwo,NA,-18.0607,13.84,80.02,55,94,2.77,2021-02-10 10:59:37
Sitka,US,57.0531,-135.33,14.0,48,1,9.22,2021-02-10 10:59:37
Avera,US,33.194,-82.5271,53.6,92,90,3.44,2021-02-10 10:59:37
Westport,US,41.1415,-73.3579,21.2,79,1,3.44,2021-02-10 10:57:18
Grindavik,IS,63.8424,-22.4338,35.6,87,75,10.36,2021-02-10 10:59:37
Kendari,ID,-3.945,122.4989,79.81,84,23,3.85,2021-02-10 10:59:37
Honningsvåg,NO,70.9821,25.9704,24.8,80,75,16.11,2021-02-10 10:59:37
Shashi,CN,30.3072,112.2447,50.0,83,100,4.5,2021-02-10 10:59:38
Yulara,AU,-25.2406,130.9889,96.8,34,40,13.8,2021-02-10 10:59:38
Flinders,AU,-34.5833,150.8552,69.01,76,88,1.01,2021-02-10 10:59:38
Carnarvon,AU,-24.8667,113.6333,80.6,83,0,25.32,2021-02-10 10:59:38
Byron Bay,AU,-28.65,153.6167,69.8,78,75,9.22,2021-02-10 10:59:38
Antalaha,MG,-14.9003,50.2788,84.02,67,60,6.04,2021-02-10 10:59:38
Bonfim,BR,3.0833,-59.95,74.53,78,67,8.61,2021-02-10 10:59:38
Ilulissat,GL,69.2167,-51.1,14.0,44,0,20.71,2021-02-10 10:59:38
Trunovskoye,RU,45.4878,42.1358,46.4,76,0,4.47,2021-02-10 10:59:38
La Santisima Trinidad,BO,-14.8333,-64.9,73.4,94,90,9.22,2021-02-10 10:59:39
Rincon,US,32.296,-81.2354,60.8,88,90,2.01,2021-02-10 10:59:39
Mahibadhoo,MV,3.7833,72.9667,81.68,76,5,13.89,2021-02-10 10:59:39
Bali,ID,-8.5,115.0,82.4,78,40,8.05,2021-02-10 10:59:39
Bonthe,SL,7.5264,-12.505,87.46,58,64,3.49,2021-02-10 10:59:07
Bima,ID,-8.4667,118.7167,78.93,84,100,0.63,2021-02-10 10:59:39
Mayor Pablo Lagerenza,PY,-19.9309,-60.7718,68.88,83,96,9.13,2021-02-10 10:59:39
Lüderitz,NA,-26.6481,15.1594,71.64,65,8,7.05,2021-02-10 10:59:39
Gifhorn,DE,52.4833,10.55,27.0,79,90,3.44,2021-02-10 10:59:39
Plaridel,PH,14.8872,120.8572,80.6,78,90,3.44,2021-02-10 10:59:39
Iqaluit,CA,63.7506,-68.5145,5.0,85,75,4.61,2021-02-10 10:59:40
Castro,BR,-24.7911,-50.0119,59.02,93,99,6.89,2021-02-10 10:57:40
Kharabali,RU,47.4196,47.2568,42.01,85,97,1.01,2021-02-10 10:59:40
Tabas,IR,33.5959,56.9244,71.6,23,23,2.3,2021-02-10 10:58:32
Lumby,CA,50.2498,-118.969,12.99,72,100,1.14,2021-02-10 10:59:40
Okhotsk,RU,59.3833,143.3,22.86,92,100,15.46,2021-02-10 10:59:40
Ţahţā,EG,26.7693,31.5021,77.0,27,0,5.75,2021-02-10 10:59:40
Bathsheba,BB,13.2167,-59.5167,77.0,65,40,18.41,2021-02-10 10:59:40
Chu,KZ,43.5983,73.7614,33.03,99,100,1.95,2021-02-10 10:59:40
Kyra,RU,49.5776,111.9753,16.97,90,100,1.66,2021-02-10 10:59:41
Sur,OM,22.5667,59.5289,77.27,43,100,12.3,2021-02-10 10:59:41
Kaitangata,NZ,-46.2817,169.8464,54.0,79,97,4.0,2021-02-10 10:59:41
Sawtell,AU,-30.3833,153.1,64.4,94,90,2.3,2021-02-10 10:59:41
Caravelas,BR,-17.7125,-39.2481,79.45,73,100,4.9,2021-02-10 10:59:41
Onufriyivka,UA,48.9072,33.4487,36.46,99,100,7.78,2021-02-10 10:59:41
Fărcaşa,RO,47.5833,23.3333,43.0,81,75,4.61,2021-02-10 10:59:41
Clyde River,CA,70.4692,-68.5914,3.2,85,90,31.07,2021-02-10 10:59:41
Barstow,US,34.8986,-117.0228,53.6,37,90,8.05,2021-02-10 10:57:25
Vryburg,ZA,-26.9566,24.7284,85.57,38,16,3.4,2021-02-10 10:59:41
San Luis,AR,-33.295,-66.3356,62.29,74,9,3.27,2021-02-10 10:59:41
Aklavik,CA,68.2191,-135.0107,-32.8,68,0,4.61,2021-02-10 10:59:42
Alofi,NU,-19.0595,-169.9187,77.0,100,100,1.14,2021-02-10 10:59:42
Chapais,CA,49.7834,-74.8492,-18.4,76,1,3.18,2021-02-10 10:59:42
Jiwani,PK,25.05,61.7417,79.81,29,97,8.66,2021-02-10 10:59:42
Vorobyevka,RU,50.6451,40.9245,29.41,98,100,4.63,2021-02-10 10:59:42
Shelburne,CA,44.0787,-80.2041,12.0,89,76,8.1,2021-02-10 10:59:42
Robe,AU,-37.1833,139.75,68.13,57,0,10.67,2021-02-10 10:59:42
Kahului,US,20.8947,-156.47,64.99,63,20,3.44,2021-02-10 10:55:16
Provideniya,RU,64.3833,-173.3,-8.79,74,0,12.95,2021-02-10 10:59:42
Ormond Beach,US,29.2858,-81.0559,68.0,94,75,1.52,2021-02-10 10:59:42
Tessalit,ML,20.1986,1.0114,85.35,12,20,5.82,2021-02-10 10:59:43
Kismayo,SO,-0.3582,42.5454,84.04,59,71,21.07,2021-02-10 10:59:43
Weyburn,CA,49.6668,-103.8511,-18.4,69,97,9.22,2021-02-10 10:59:43
Guerrero Negro,MX,27.9769,-114.0611,54.9,83,28,9.17,2021-02-10 10:59:43
Sakaiminato,JP,35.55,133.2333,48.2,61,75,12.66,2021-02-10 10:55:04
Faya,SA,18.3851,42.4509,66.2,34,20,8.05,2021-02-10 10:59:43
Smithers,CA,54.7804,-127.1743,-22.0,83,1,2.3,2021-02-10 10:55:57
Poltavka,RU,54.3663,71.7632,-17.07,87,54,8.19,2021-02-10 10:59:44
Petropavlovsk-Kamchatskiy,RU,53.0452,158.6483,24.8,80,75,6.71,2021-02-10 10:59:44
Forestville,US,38.8451,-76.875,35.6,80,20,4.61,2021-02-10 10:59:44
Road Town,VG,18.4167,-64.6167,73.99,92,60,4.0,2021-02-10 10:59:44
Geraldton,AU,-28.7667,114.6,69.8,60,0,25.32,2021-02-10 10:59:44
Sobolevo,RU,54.4299,31.8996,7.66,94,95,8.59,2021-02-10 10:59:44
Ahipara,NZ,-35.1667,173.1667,62.85,88,92,9.04,2021-02-10 10:59:44
Upernavik,GL,72.7868,-56.1549,8.65,78,0,4.03,2021-02-10 10:59:44
Guadalupe y Calvo,MX,26.1,-106.9667,38.1,68,0,4.92,2021-02-10 10:59:44
São Gabriel,BR,-30.3364,-54.32,68.7,89,46,8.52,2021-02-10 10:59:45
Tsimmerbude,RU,54.675,20.1347,12.0,85,90,6.71,2021-02-10 10:59:45
Verkhovazh'ye,RU,60.7472,42.0465,3.69,89,37,2.06,2021-02-10 10:59:45
Acaraú,BR,-2.8856,-40.12,80.47,81,90,11.68,2021-02-10 10:59:45
Mporokoso,ZM,-9.3727,30.125,71.22,88,100,4.72,2021-02-10 10:59:45
Kangaatsiaq,GL,68.3065,-53.4641,10.65,88,0,13.0,2021-02-10 10:59:45
Belyy Yar,RU,53.6039,91.3903,10.4,56,0,6.71,2021-02-10 10:59:45
Bethel,US,41.3712,-73.414,17.01,85,1,5.17,2021-02-10 10:59:45
Annau,TM,37.8876,58.516,66.2,45,0,11.5,2021-02-10 10:59:45
Khatanga,RU,71.9667,102.5,-12.26,85,29,9.93,2021-02-10 10:59:46
Shenjiamen,CN,29.9576,122.298,50.9,88,100,7.05,2021-02-10 10:59:46
Great Yarmouth,GB,52.6083,1.7305,34.0,59,99,10.36,2021-02-10 10:59:46
Port Hardy,CA,50.6996,-127.4199,30.2,64,90,11.5,2021-02-10 10:59:46
Kindersley,CA,51.4668,-109.1682,-23.8,69,1,10.36,2021-02-10 10:59:46
Najrān,SA,17.4924,44.1277,71.6,35,0,6.91,2021-02-10 10:59:46
Grootfontein,NA,-19.5667,18.1167,69.8,88,75,10.36,2021-02-10 10:59:46
Mergen,CN,49.1833,125.2167,11.62,94,91,5.03,2021-02-10 10:59:47
Ixtapa,MX,20.7,-105.2,64.99,89,15,2.15,2021-02-10 10:56:12
Atikokan,CA,48.7555,-91.6216,-23.19,87,88,3.67,2021-02-10 10:59:47
Lata,PT,40.1629,-8.3327,61.0,76,37,1.01,2021-02-10 10:59:47
Bida,NG,9.0833,6.0167,102.58,11,0,2.28,2021-02-10 10:59:47
George Town,MY,5.4112,100.3354,89.6,66,20,11.5,2021-02-10 10:55:09
East Stroudsburg,US,40.9995,-75.1813,16.0,93,38,2.91,2021-02-10 10:59:47
Buraidah,SA,26.326,43.975,68.0,52,0,3.44,2021-02-10 10:59:47
São José da Coroa Grande,BR,-8.8978,-35.1478,81.5,73,67,3.53,2021-02-10 10:59:47
Mitsamiouli,KM,-11.3847,43.2844,83.25,75,100,16.64,2021-02-10 10:59:47
Sulangan,PH,11.1373,123.7228,81.81,80,79,7.76,2021-02-10 10:59:48
Airai,TL,-8.9266,125.4092,62.98,100,99,1.97,2021-02-10 10:59:48
Cabedelo,BR,-6.9811,-34.8339,78.8,89,40,5.75,2021-02-10 10:59:48
Seoul,KR,37.5683,126.9778,42.8,75,40,4.61,2021-02-10 10:57:37
Níjar,ES,36.9665,-2.206,62.6,77,0,31.07,2021-02-10 10:55:15
Marsabit,KE,2.3284,37.9899,79.97,37,73,13.96,2021-02-10 10:59:48
Saint-Léonard,CA,47.173,-67.9247,-5.01,70,1,1.52,2021-02-10 10:59:48
Klaksvík,FO,62.2266,-6.589,32.0,64,56,4.61,2021-02-10 10:59:48
Samfya,ZM,-11.3649,29.5565,67.14,93,100,2.53,2021-02-10 10:59:48
Andrelândia,BR,-21.7397,-44.3092,65.08,90,93,2.64,2021-02-10 10:59:49
Lompoc,US,34.6391,-120.4579,48.2,87,90,5.3,2021-02-10 10:59:49
Povenets,RU,62.8487,34.8262,-0.72,92,76,2.82,2021-02-10 10:59:49
Pervomayskoye,RU,43.919,46.7102,63.27,40,3,13.85,2021-02-10 10:59:49
Valdosta,US,30.8327,-83.2785,62.6,94,90,0.65,2021-02-10 10:59:49
Nemuro,JP,43.3236,145.575,24.33,95,45,9.22,2021-02-10 10:59:49
Kununurra,AU,-15.7667,128.7333,78.8,100,75,4.61,2021-02-10 10:59:49
Nokaneng,BW,-19.6667,22.2667,73.6,78,97,9.48,2021-02-10 10:59:49
Havelock,US,34.8791,-76.9013,44.01,91,45,3.0,2021-02-10 10:59:49
Borogontsy,RU,62.6683,131.1683,-17.48,86,0,0.4,2021-02-10 10:59:49
Tiarei,PF,-17.5333,-149.3333,75.2,73,17,2.3,2021-02-10 10:59:49
Ambon City,ID,-3.6954,128.1814,82.4,78,40,8.05,2021-02-10 10:59:50
Youkounkoun,GN,12.5333,-13.1333,93.99,11,20,4.79,2021-02-10 10:59:50
Broome,US,42.2506,-75.833,15.8,79,90,6.91,2021-02-10 10:59:50
Vila Velha,BR,-20.3297,-40.2925,78.01,94,0,3.65,2021-02-10 10:59:50
Calderitas,MX,18.55,-88.25,75.51,86,2,6.71,2021-02-10 10:59:50
Youghal,IE,51.95,-7.8506,33.01,93,75,14.97,2021-02-10 10:59:50
Nanga Eboko,CM,4.6833,12.3667,94.26,29,99,1.5,2021-02-10 10:59:50
Kastamonu Province,TR,41.5,33.6667,51.8,54,75,16.11,2021-02-10 10:59:50
Teguise,ES,29.0605,-13.564,68.0,77,40,4.61,2021-02-10 10:59:51
Mehamn,NO,71.0357,27.8492,23.0,63,75,18.41,2021-02-10 10:59:51
Killorglin,IE,52.1,-9.7833,35.6,69,0,10.36,2021-02-10 10:59:51
Yārāda,IN,17.65,83.2667,80.6,54,0,11.5,2021-02-10 10:59:51
Nanortalik,GL,60.1432,-45.2371,21.94,87,69,11.43,2021-02-10 10:59:51
General Pico,AR,-35.6566,-63.7568,60.33,80,1,7.78,2021-02-10 10:59:51
Churapcha,RU,62.0025,132.4325,-16.96,87,0,2.19,2021-02-10 10:59:51
Naze,JP,28.3667,129.4833,60.8,63,75,5.75,2021-02-10 10:59:51
Pitkyaranta,RU,61.5734,31.4792,10.02,95,93,4.05,2021-02-10 10:59:51
Sawākin,SD,19.1059,37.3321,80.67,62,22,12.26,2021-02-10 10:59:51
Östersund,SE,63.1792,14.6357,10.4,85,0,3.44,2021-02-10 10:58:17
Rio Grande,BR,-32.035,-52.0986,71.01,99,71,14.76,2021-02-10 10:59:52
Vao,NC,-22.6667,167.4833,77.79,81,2,20.98,2021-02-10 10:59:52
Sabang,ID,5.8933,95.3214,82.35,77,67,12.37,2021-02-10 10:59:52
Betafo,MG,-19.8333,46.85,70.63,74,100,4.27,2021-02-10 10:59:52
Taylorville,US,39.5489,-89.2945,12.2,62,90,11.5,2021-02-10 10:59:52
Ikom,NG,5.9667,8.7063,103.59,28,98,1.57,2021-02-10 10:59:52
Bilma,NE,18.6853,12.9164,86.31,11,0,14.43,2021-02-10 10:59:52
Severo-Kuril'sk,RU,50.6789,156.125,23.52,89,68,5.82,2021-02-10 10:59:52
North Bend,US,43.4065,-124.2243,36.0,100,90,4.61,2021-02-10 10:59:52
Katobu,ID,-4.9408,122.5276,79.81,78,36,3.6,2021-02-10 10:59:53
Te Anau,NZ,-45.4167,167.7167,49.84,86,100,8.21,2021-02-10 10:59:53
Marawi,PH,7.9986,124.2928,77.0,91,99,5.01,2021-02-10 10:59:53
Nanlong,CN,31.3533,106.0631,60.12,48,0,3.71,2021-02-10 10:59:53
Mounana,GA,-1.4085,13.1586,84.2,74,40,3.44,2021-02-10 10:59:53
Visnes,NO,59.3556,5.2242,28.0,68,20,3.44,2021-02-10 10:59:53
Nelson Bay,AU,-32.7167,152.15,66.2,82,3,4.61,2021-02-10 10:59:54
Mundra,IN,22.85,69.7333,78.98,28,100,9.1,2021-02-10 10:59:54
Penzance,GB,50.1186,-5.5371,33.8,74,75,17.27,2021-02-10 10:59:54
Itoman,JP,26.1247,127.6694,66.2,82,75,16.11,2021-02-10 10:59:54
Mikuni,JP,36.2171,136.1519,42.8,75,75,8.05,2021-02-10 10:59:54
Buala,SB,-8.145,159.5921,80.94,80,93,8.46,2021-02-10 10:59:54
Sattahip,TH,12.6664,100.9007,80.6,74,20,6.91,2021-02-10 10:59:54
Bat Khela,PK,34.6167,71.9714,72.28,21,44,4.68,2021-02-10 10:59:55
Wattegama,LK,6.7989,81.4808,89.6,55,20,9.22,2021-02-10 10:59:55
Tual,ID,-5.6667,132.75,83.8,80,21,13.4,2021-02-10 10:59:55
Vila Franca do Campo,PT,37.7167,-25.4333,61.0,88,20,16.11,2021-02-10 10:59:55
Kati,ML,12.7441,-8.0726,84.2,16,0,11.5,2021-02-10 10:59:55
Mujiayingzi,CN,42.1167,118.7833,25.61,87,0,6.87,2021-02-10 10:59:55
Auki,SB,-8.7676,160.7034,80.42,82,97,8.5,2021-02-10 10:59:55
Saldanha,ZA,-33.0117,17.9442,84.2,39,0,14.97,2021-02-10 10:59:55
Cockburn Town,TC,21.4612,-71.1419,75.87,81,2,18.12,2021-02-10 10:59:55
Santa Maria,BR,-29.6842,-53.8069,64.4,100,20,3.98,2021-02-10 10:59:55
Port Macquarie,AU,-31.4333,152.9167,64.99,99,80,5.88,2021-02-10 10:59:56
San Rafael,AR,-34.6177,-68.3301,63.34,73,0,2.3,2021-02-10 10:59:56
Taoudenni,ML,22.6783,-3.9836,78.44,15,0,8.48,2021-02-10 10:59:56
Vangaindrano,MG,-23.35,47.6,78.58,85,100,3.76,2021-02-10 10:59:56
Ōfunato,JP,39.0717,141.7167,39.2,65,75,8.05,2021-02-10 10:59:56
Tubualá,PA,9.5167,-79.0333,73.99,94,20,9.26,2021-02-10 10:59:56
Alice Springs,AU,-23.7,133.8833,91.0,48,75,12.66,2021-02-10 10:59:56
Dvinskoy,RU,62.1535,45.1175,0.27,91,99,2.89,2021-02-10 10:59:56
Talnakh,RU,69.4865,88.3972,-8.55,85,2,5.77,2021-02-10 10:59:56
Wanning,CN,18.8003,110.3967,65.84,86,89,9.57,2021-02-10 10:59:57
Port Hedland,AU,-20.3167,118.5667,86.0,70,22,14.97,2021-02-10 10:59:57
Boende,CD,-0.2167,20.8667,96.21,29,24,3.04,2021-02-10 10:59:57
Kota Belud,MY,6.351,116.4305,82.4,83,20,2.3,2021-02-10 10:59:57
Terrace,CA,54.5163,-128.6035,1.4,60,1,24.16,2021-02-10 10:59:57
Kingston,JM,17.997,-76.7936,75.2,78,20,4.61,2021-02-10 10:58:43
Kargasok,RU,59.0556,80.8572,-7.31,90,100,7.47,2021-02-10 10:59:57
Kidal,ML,18.4411,1.4078,87.44,11,0,11.16,2021-02-10 10:59:58
Novovoronezh,RU,51.3072,39.2173,17.6,79,0,8.95,2021-02-10 10:56:09
Yumen,CN,40.2833,97.2,43.75,48,9,26.15,2021-02-10 10:59:58
Portland,US,45.5234,-122.6762,34.0,86,75,0.63,2021-02-10 10:57:03
Hithadhoo,MV,-0.6,73.0833,82.09,78,19,16.04,2021-02-10 10:59:02
Labuhan,ID,-6.8844,112.2051,80.13,86,100,7.29,2021-02-10 10:59:58
Menongue,AO,-14.6585,17.691,77.83,60,100,6.76,2021-02-10 10:59:58
Kumul,CN,42.8,93.45,37.58,65,42,7.9,2021-02-10 10:59:58
Iquitos,PE,-3.7481,-73.2472,75.2,94,40,2.3,2021-02-10 10:59:58
Caçapava do Sul,BR,-30.5122,-53.4914,65.25,98,36,4.25,2021-02-10 10:59:58
Balkhash,KZ,46.844,74.9804,6.8,78,48,4.47,2021-02-10 10:59:59
Basco,PH,20.4487,121.9702,74.46,88,100,23.31,2021-02-10 10:59:59
Verāval,IN,20.9,70.3667,80.15,42,55,10.0,2021-02-10 10:59:59
Manzanillo,CU,20.3433,-77.1167,69.35,91,1,7.56,2021-02-10 10:59:59
Enid,US,36.3956,-97.8784,19.4,100,90,8.05,2021-02-10 10:56:34
Kerema,PG,-7.9631,145.7785,79.52,74,100,3.2,2021-02-10 10:59:59
Adré,TD,13.4667,22.2,84.79,14,0,12.55,2021-02-10 10:59:59
Oranjestad,AW,12.524,-70.027,77.0,78,20,12.66,2021-02-10 10:59:59
Nässjö,SE,57.6531,14.6968,19.4,79,20,9.22,2021-02-10 10:59:59
Safaga,EG,26.7292,33.9365,77.0,25,0,8.05,2021-02-10 10:59:59
Takoradze,GH,4.8845,-1.7554,86.56,67,11,7.29,2021-02-10 10:59:59
San Cristobal,VE,7.7669,-72.225,66.52,90,95,1.41,2021-02-10 11:00:00
Cortez,US,37.3489,-108.5859,35.6,80,90,5.75,2021-02-10 11:00:00
Olinda,BR,-8.0089,-34.8553,78.8,73,75,2.3,2021-02-10 10:59:44
Talgar,KZ,43.3027,77.2395,30.2,93,90,2.24,2021-02-10 11:00:00
Srednekolymsk,RU,67.45,153.6833,-5.44,89,0,7.0,2021-02-10 11:00:01
Cap Malheureux,MU,-19.9842,57.6142,86.0,63,15,8.99,2021-02-10 11:00:05
Kudahuvadhoo,MV,2.6708,72.8944,81.72,74,0,15.23,2021-02-10 11:00:13
Karratha,AU,-20.7377,116.8463,89.1,47,0,23.64,2021-02-10 11:00:25
Sabha,LY,27.0377,14.4283,77.36,17,0,12.1,2021-02-10 11:00:26
Ojinaga,MX,29.5667,-104.4167,55.4,26,1,5.75,2021-02-10 11:00:28
Sørland,NO,67.667,12.6934,30.2,47,40,2.3,2021-02-10 11:00:31
Starosubkhangulovo,RU,53.1031,57.4423,13.35,93,100,2.44,2021-02-10 11:00:33
Akropong,GH,5.9746,-0.0854,86.0,74,40,11.5,2021-02-10 11:00:34
Doka,SD,13.5167,35.7667,95.41,12,94,7.96,2021-02-10 11:00:34
Maryborough,AU,-25.5333,152.7,73.99,71,8,3.0,2021-02-10 11:00:35
Peleduy,RU,59.6289,112.7406,14.85,95,100,5.79,2021-02-10 11:00:35
Bājitpur,BD,24.2167,90.95,80.6,41,5,3.44,2021-02-10 11:00:35
Brisbane,AU,-27.4679,153.0281,71.6,73,75,8.05,2021-02-10 10:58:52
Chui,UY,-33.6971,-53.4616,72.05,80,0,7.4,2021-02-10 11:00:36
Tartagal,AR,-22.5164,-63.8013,63.39,96,100,2.53,2021-02-10 11:00:26
Olafsvik,IS,64.8945,-23.7142,28.65,97,100,17.87,2021-02-10 11:00:36
Rodeo,US,38.033,-122.2669,51.8,76,1,9.22,2021-02-10 11:00:37
Mandurah,AU,-32.55,115.7,69.01,64,0,3.0,2021-02-10 10:58:30
Bridlington,GB,54.0831,-0.1919,34.0,80,99,11.99,2021-02-10 11:00:38
Manta,EC,-0.95,-80.7333,75.31,85,93,3.78,2021-02-10 11:00:38
Melfi,IT,40.9965,15.6514,59.0,100,90,14.97,2021-02-10 11:00:39
Chitipa,MW,-9.7024,33.2697,68.85,89,100,3.24,2021-02-10 11:00:39
Kokopo,PG,-4.352,152.2633,80.06,82,100,6.87,2021-02-10 11:00:39
Rodrigues Alves,BR,-7.738,-72.6509,71.8,97,85,1.68,2021-02-10 11:00:40
Kilindoni,TZ,-7.9139,39.6668,80.83,81,100,20.4,2021-02-10 11:00:40
Shizunai-furukawachō,JP,42.3339,142.3669,25.14,92,69,12.03,2021-02-10 11:00:41
Katsuura,JP,35.1333,140.3,46.99,66,75,2.3,2021-02-10 11:00:41
Vestmannaeyjar,IS,63.4427,-20.2734,41.0,75,40,17.27,2021-02-10 11:00:41
Sinnamary,GF,5.3833,-52.95,77.02,79,94,10.45,2021-02-10 11:00:41
Guéret,FR,46.1667,1.8667,42.8,93,90,9.22,2021-02-10 11:00:42
Sharjah city,AE,25.3573,55.4033,80.6,41,0,12.66,2021-02-10 11:00:42
Praia,CV,14.9215,-23.5087,71.6,68,0,23.02,2021-02-10 11:00:42
Nishihara,JP,26.1842,127.7558,66.2,63,90,14.97,2021-02-10 11:00:43
Snåase,NO,64.2457,12.3778,3.2,85,20,17.27,2021-02-10 11:00:43
Fortuna,US,40.5982,-124.1573,44.01,100,90,5.75,2021-02-10 11:00:44
Isangel,VU,-19.55,169.2667,80.73,75,21,12.57,2021-02-10 11:00:44
Krasnopillya,UA,50.7746,35.2597,25.5,98,100,10.92,2021-02-10 11:00:44
Amuntai,ID,-2.4177,115.2494,82.71,75,99,0.94,2021-02-10 11:00:45
Zaykovo,RU,57.5613,62.7568,-9.44,86,54,3.09,2021-02-10 11:00:45
Moultrie,US,31.1799,-83.7891,60.8,100,90,3.09,2021-02-10 11:00:45
Bosaso,SO,11.2842,49.1816,80.6,74,0,13.8,2021-02-10 11:00:46
Athboy,IE,53.6186,-6.9206,37.0,75,75,9.22,2021-02-10 11:00:46
Kaihua,CN,23.3687,104.28,52.9,70,32,3.69,2021-02-10 11:00:47
Tutóia,BR,-2.7619,-42.2744,78.58,85,74,7.0,2021-02-10 11:00:47
Bulgan,MN,48.8125,103.5347,23.86,91,71,3.94,2021-02-10 11:00:48
Krasnogvardeyskiy,RU,57.3793,62.3195,-8.1,86,74,3.09,2021-02-10 11:00:48
Alghero,IT,40.5589,8.3181,59.0,88,75,17.27,2021-02-10 10:55:51
Viedma,AR,-40.8135,-62.9967,61.0,82,100,15.5,2021-02-10 10:59:28
Palembang,ID,-2.9167,104.7458,84.2,79,40,12.66,2021-02-10 11:00:48
Dauphin,CA,51.1494,-100.0502,-20.2,63,1,9.22,2021-02-10 11:00:49
Shingū,JP,33.7333,135.9833,48.2,66,20,4.61,2021-02-10 11:00:49
Goya,AR,-29.14,-59.2626,67.6,81,62,5.35,2021-02-10 11:00:49
Powell River,CA,49.8496,-124.5361,32.0,74,75,4.61,2021-02-10 11:00:49
Mashhad,IR,36.297,59.6062,69.8,30,0,4.61,2021-02-10 11:00:49
Dickinson,US,29.4608,-95.0513,63.0,94,90,5.75,2021-02-10 11:00:49
Jimo,CN,36.3897,120.4622,45.0,70,0,4.47,2021-02-10 11:00:50
Umluj,SA,25.0213,37.2685,82.27,34,1,11.32,2021-02-10 11:00:31
Huarmey,PE,-10.0681,-78.1522,69.46,80,89,0.65,2021-02-10 11:00:50
Gold Coast,AU,-28.0,153.4333,71.01,94,75,5.75,2021-02-10 10:57:00
Mudgee,AU,-32.5943,149.5871,69.8,64,16,10.36,2021-02-10 11:00:50
La Brea,HN,15.8,-85.9667,67.17,91,52,3.2,2021-02-10 11:00:50
Touros,BR,-5.1989,-35.4608,77.0,88,40,4.61,2021-02-10 11:00:51
Hengyang,CN,26.8881,112.615,50.07,93,100,5.66,2021-02-10 11:00:51
Saint-Joseph,RE,-21.3667,55.6167,87.8,62,0,19.57,2021-02-10 11:00:51
Richards Bay,ZA,-28.783,32.0377,84.52,67,25,11.18,2021-02-10 11:00:51
Taihecun,CN,45.8,130.85,14.11,94,46,5.61,2021-02-10 11:00:52
‘Āhuimanu,US,21.4447,-157.8378,69.8,56,90,12.66,2021-02-10 11:00:52
Nouadhibou,MR,20.931,-17.0347,64.4,63,0,17.27,2021-02-10 11:00:52
Coyhaique,CL,-45.5752,-72.0662,51.8,82,61,0.92,2021-02-10 11:00:53
Mizque,BO,-17.941,-65.3402,57.72,82,100,3.22,2021-02-10 11:00:53
Marrakesh,MA,31.6315,-8.0083,59.0,82,40,4.61,2021-02-10 11:00:32
Tromsø,NO,69.6496,18.957,24.01,86,75,6.91,2021-02-10 10:59:53
Margate,GB,51.3813,1.3862,35.01,55,100,1.99,2021-02-10 11:00:54
Outlook,CA,51.5001,-107.0513,-22.0,69,99,11.5,2021-02-10 11:00:54
Samarai,PG,-10.6167,150.6667,83.35,75,100,13.69,2021-02-10 11:00:54
Sukhumi,GE,43.0033,41.0153,64.47,45,12,3.56,2021-02-10 11:00:55
Arkansas City,US,37.062,-97.0384,18.0,86,90,9.22,2021-02-10 11:00:55
Marmora,IT,44.4583,7.094,46.0,81,75,3.44,2021-02-10 11:00:56
Walvis Bay,NA,-22.9575,14.5053,80.6,54,0,6.91,2021-02-10 11:00:56
Sibolga,ID,1.7427,98.7792,83.14,76,99,3.31,2021-02-10 11:00:56
Liverpool,GB,53.4106,-2.9779,35.01,64,33,9.22,2021-02-10 11:00:56
San Ramon,US,37.7799,-121.978,48.99,87,20,2.62,2021-02-10 11:00:20
Kota Kinabalu,MY,5.9749,116.0724,82.4,83,20,2.3,2021-02-10 11:00:57
Santa Fe,AR,-31.6333,-60.7,66.99,93,93,1.99,2021-02-10 10:59:12
Jalu,LY,29.0331,21.5482,75.09,17,0,7.56,2021-02-10 11:00:57
Keelung,TW,25.1283,121.7419,69.01,88,75,13.8,2021-02-10 11:00:58
Hamilton,US,39.1834,-84.5333,21.2,79,90,13.8,2021-02-10 11:00:58
Lodeynoye Pole,RU,60.726,33.5531,8.69,93,58,2.17,2021-02-10 11:00:58
Dakar,SN,14.6937,-17.4441,68.0,77,0,12.66,2021-02-10 10:59:46
Mvuma,ZW,-19.2792,30.5283,74.43,67,90,8.21,2021-02-10 11:00:59
Sistranda,NO,63.7256,8.834,17.6,79,20,8.05,2021-02-10 11:00:59
Rivera,UY,-30.9053,-55.5508,66.97,88,77,5.64,2021-02-10 11:00:59
Henties Bay,NA,-22.116,14.2845,73.0,80,41,9.78,2021-02-10 11:01:00
Lysyye Gory,RU,51.5506,44.8414,13.15,95,100,5.86,2021-02-10 11:01:00
Manaus,BR,-3.1019,-60.025,73.4,100,75,3.44,2021-02-10 10:58:41
Pangnirtung,CA,66.1451,-65.7125,9.12,75,0,4.45,2021-02-10 11:01:00
Jining,CN,35.405,116.5814,51.01,47,7,4.7,2021-02-10 11:01:00
São Francisco,BR,-15.9486,-44.8644,71.29,91,10,7.14,2021-02-10 11:01:01
Lagunas,PE,-5.2269,-75.6753,72.61,92,94,1.68,2021-02-10 11:01:02
Homer,US,59.6425,-151.5483,25.0,80,90,4.61,2021-02-10 11:01:02
Guymon,US,36.6828,-101.4816,19.4,73,90,6.91,2021-02-10 11:01:02
Huaiyuan,CN,32.973,117.1995,52.05,57,100,6.85,2021-02-10 11:01:03
Gamovo,RU,57.8652,56.1056,-5.8,65,0,4.47,2021-02-10 11:01:03
Bogandé,BF,12.9714,-0.1436,93.63,8,0,12.06,2021-02-10 11:01:04
Fernández,AR,-27.9204,-63.8935,66.99,93,100,1.99,2021-02-10 11:01:04
Banes,CU,20.9625,-75.7186,73.4,94,75,4.61,2021-02-10 11:01:04
Ankang,CN,32.68,109.0172,59.99,38,0,2.21,2021-02-10 11:01:05
Lethem,GY,3.3803,-59.7968,74.46,78,50,13.15,2021-02-10 11:01:05
Gorom-Gorom,BF,14.4439,-0.2361,91.83,9,0,11.5,2021-02-10 11:01:05
Ust-Nera,RU,64.5667,143.2,5.32,79,100,7.07,2021-02-10 11:01:05
Leira,ES,43.1167,-8.4,52.0,88,91,4.43,2021-02-10 11:01:06
Mossamedes,AO,-15.1961,12.1522,84.2,58,40,12.66,2021-02-10 11:01:06
Boulder City,US,35.9786,-114.8325,54.0,32,75,3.44,2021-02-10 11:01:06
Kulhudhuffushi,MV,6.6221,73.07,82.02,65,0,8.86,2021-02-10 11:01:06
Vila do Maio,CV,15.1333,-23.2167,73.4,60,0,21.85,2021-02-10 11:01:06
Linares,CL,-35.85,-71.6,64.72,74,10,1.77,2021-02-10 11:01:06
Rexburg,US,43.826,-111.7897,1.4,85,1,2.17,2021-02-10 11:01:06
Teya,RU,60.3778,92.6267,-4.5,87,100,5.95,2021-02-10 11:01:06
Eyl,SO,7.9803,49.8164,83.03,51,10,25.34,2021-02-10 10:59:15
Benguela,AO,-12.5763,13.4055,83.62,56,100,10.45,2021-02-10 11:01:07
Wabash,US,40.7978,-85.8205,16.0,87,100,4.0,2021-02-10 11:01:07
